network,station,channel,location,latitude,longitude,elevation
AK,FID,BHZ,,60.727699,-146.598694,500.0
AK,GHO,BHZ,,61.771,-148.926,1032.0
AK,GLI,BHZ,,60.8792,-147.095901,430.0
AK,KNK,BHZ,,61.4131,-148.4585,598.0
AK,M23K,BHZ,,61.7929,-147.7262,583.0
AK,PWL,BHZ,,60.858398,-148.333405,550.0
AK,RC01,BHZ,,61.088902,-149.738998,390.0
AK,SAW,BHZ,,61.806999,-148.331604,781.0
AK,SCM,BHZ,,61.832001,-147.328995,1050.0
AK,VMT,BHZ,,61.083,-146.368,97.0
